[
    { "name": "Taipei, Taiwan", "latitude": 25.0330, "longitude": 121.5654 },
    { "name": "Denpasar, Indonesia", "latitude": -8.6705, "longitude": 115.2126 },
    { "name": "Rome, Italy", "latitude": 41.9028, "longitude": 12.4964 },
    { "name": "Tenerife, Spain", "latitude": 28.2916, "longitude": -16.6291 },
    { "name": "Portland, OR", "latitude": 45.5051, "longitude": -122.6750 },
    { "name": "Coos Bay, OR", "latitude": 43.3665, "longitude": -124.2179 },
    { "name": "Redding, CA", "latitude": 40.5865, "longitude": -122.3917 },
    { "name": "Singapore", "latitude": 1.3521, "longitude": 103.8198 },
    { "name": "Penang, Malaysia", "latitude": 5.4163, "longitude": 100.3326 },
    { "name": "Sydney, Australia", "latitude": -33.8688, "longitude": 151.2093 },
    { "name": "Melbourne, Australia", "latitude": -37.8136, "longitude": 144.9631 },
    { "name": "Christchurch, New Zealand", "latitude": -43.5321, "longitude": 172.6362 },
    { "name": "Auckland, New Zealand", "latitude": -36.8485, "longitude": 174.7633 },
    { "name": "Tokyo, Japan", "latitude": 35.6895, "longitude": 139.6917 },
    { "name": "Kyoto, Japan", "latitude": 35.0116, "longitude": 135.7681 },
    { "name": "Sapporo, Japan", "latitude": 43.06667, "longitude": 141.35 },
    { "name": "Copenhagen, Denmark", "latitude": 55.6761, "longitude": 12.5683 },
    { "name": "Oslo, Norway", "latitude": 59.9139, "longitude": 10.7522 },
    { "name": "Helsinki, Finland", "latitude": 60.1699, "longitude": 24.9384 },
    { "name": "Stockholm, Sweden", "latitude": 59.3293, "longitude": 18.0686 },
    { "name": "Honolulu, HI", "latitude": 21.3069, "longitude": -157.8583 },
    { "name": "Montreal, Canada", "latitude": 45.5017, "longitude": -73.5673 },
    { "name": "Las Vegas, NV", "latitude": 36.1699, "longitude": -115.1398 },
    { "name": "New York, NY", "latitude": 40.7128, "longitude": -74.0060 },
    { "name": "Goa, India", "latitude": 15.2993, "longitude": 74.1240 },
    { "name": "New Delhi, India", "latitude": 28.6139, "longitude": 77.2090 },
    { "name": "Bangkok, Thailand", "latitude": 13.7563, "longitude": 100.5018 },
    { "name": "Chiang Mai, Thailand", "latitude": 18.7061, "longitude": 98.9817 },
    { "name": "Azores, Portugal", "latitude": 37.7412, "longitude": -25.6756 },
    { "name": "Canggu, Indonesia", "latitude": -8.6478, "longitude": 115.1385 },
    { "name": "Zagreb, Croatia", "latitude": 45.8150, "longitude": 15.9819 },
    { "name": "Timisoara, Romania", "latitude": 45.7489, "longitude": 21.2087 },
    { "name": "Istanbul, Turkey", "latitude": 41.0082, "longitude": 28.9784 },
    { "name": "Buenos Aires, Argentina", "latitude": -34.6037, "longitude": -58.3816 },
    { "name": "Nairobi, Kenya", "latitude": -1.2864, "longitude": 36.8172 },
    { "name": "Lagos, Algarve, Portugal", "latitude": 37.1028, "longitude": -8.6730 },
    { "name": "Malaga, Spain", "latitude": 36.71997, "longitude": -4.4148 },
    { "name": "Kraków, Poland", "latitude": 50.0647, "longitude": 19.9450 },
    { "name": "Split, Croatia", "latitude": 43.5081, "longitude": 16.4402 },
    { "name": "Budapest, Hungary", "latitude": 47.4979, "longitude": 19.0402 },
    { "name": "Skopje, North Macedonia", "latitude": 41.9973, "longitude": 21.4280 },
    { "name": "Cebu, Philippines", "latitude": 10.3157, "longitude": 123.8854 },
    { "name": "Tbilisi, Georgia", "latitude": 41.7151, "longitude": 44.8271 },
    { "name": "Athens, Greece", "latitude": 37.9838, "longitude": 23.7275 },
    { "name": "Berlin, Germany", "latitude": 52.5200, "longitude": 13.4050 },
    { "name": "Hyderabad, India", "latitude": 17.3850, "longitude": 78.4867 },
    { "name": "Phnom Penh, Cambodia", "latitude": 11.5564, "longitude": 104.9282 },
    { "name": "Cuenca, Ecuador", "latitude": -2.9001, "longitude": -79.0045 },
    { "name": "San Cristóbal de las Casas, Mexico", "latitude": 16.7370, "longitude": -92.6376 },
    { "name": "Puerto Vallarta, Mexico", "latitude": 20.61098, "longitude": -105.2327 },
    { "name": "Havana, Cuba", "latitude": 23.1136, "longitude": -82.3666 },
    { "name": "Kathmandu, Nepal", "latitude": 27.7172, "longitude": 85.3240 },
    { "name": "Lima, Peru", "latitude": -12.0464, "longitude": -77.0428 },
    { "name": "Bucharest, Romania", "latitude": 44.4268, "longitude": 26.1025 },
    { "name": "Galapagos, Ecuador", "latitude": -0.9538, "longitude": -90.9656 },
    { "name": "Manila, Philippines", "latitude": 14.5995, "longitude": 120.9842 },
    { "name": "Sofia, Bulgaria", "latitude": 42.6977, "longitude": 23.3219 },
    { "name": "Newcastle Upon Tyne, UK", "latitude": 54.9784, "longitude": -1.6174 },
    { "name": "Prague, Czech Republic", "latitude": 50.0755, "longitude": 14.4378 },
    { "name": "Almaty, Kazakhstan", "latitude": 43.2220, "longitude": 76.8512 },
    { "name": "Yerevan, Armenia", "latitude": 40.1792, "longitude": 44.4991 },
    { "name": "Belgrade, Serbia", "latitude": 44.7866, "longitude": 20.4489 },
    { "name": "Dahab, Egypt", "latitude": 28.5004, "longitude": 34.5197 },
    { "name": "Marrakesh, Morocco", "latitude": 31.6295, "longitude": -7.9811 },
    { "name": "Lille, France", "latitude": 50.6292, "longitude": 3.0573 },
    { "name": "Rio de Janeiro, Brazil", "latitude": -22.9068, "longitude": -43.1729 },
    { "name": "Limassol, Cyprus", "latitude": 34.7071, "longitude": 33.0226 },
    { "name": "Dubai, UAE", "latitude": 25.2048, "longitude": 55.2708 },
    { "name": "San Juan, Puerto Rico", "latitude": 18.4655, "longitude": -66.1057 },
    { "name": "Florianopolis, Brazil", "latitude": -27.5945, "longitude": -48.5482 },
    { "name": "Cape Town, South Africa", "latitude": -33.9249, "longitude": 18.4241 },
    { "name": "Bratislava, Slovakia", "latitude": 48.1486, "longitude": 17.1077 },
    { "name": "Tirana, Albania", "latitude": 41.3275, "longitude": 19.8187 },
    { "name": "Nis, Serbia", "latitude": 43.3209, "longitude": 21.8958 },
    { "name": "Kotor, Montenegro", "latitude": 42.4247, "longitude": 18.7712 },
    { "name": "Cordoba, Argentina", "latitude": -31.4201, "longitude": -64.1888 },
    { "name": "Tallinn, Estonia", "latitude": 59.4370, "longitude": 24.7536 },
    { "name": "Calgary, AB", "latitude": 51.0447, "longitude": -114.0719 },
    { "name": "Arugam Bay, Sri Lanka", "latitude": 6.8400, "longitude": 81.8375 },
    { "name": "Ljubljana, Slovenia", "latitude": 46.0569, "longitude": 14.5058 },
    { "name": "Paramaribo, Suriname", "latitude": 5.8520, "longitude": -55.2038 },
    { "name": "Livingstone, Zambia", "latitude": -17.8510, "longitude": 25.8619 },
    { "name": "Aruba", "latitude": 12.5211, "longitude": -69.9683 },
    { "name": "Reykjavik, Iceland (Mar 4)", "latitude": 64.1265, "longitude": -21.8174 },
    { "name": "Palermo, Italy", "latitude": 38.1157, "longitude": 13.3615 },
    { "name": "Portland, ME", "latitude": 43.6591, "longitude": -70.2568 },
    { "name": "Cedar Rapids, IA", "latitude": 41.977879, "longitude": -91.665627 },
    { "name": "San Diego, CA", "latitude": 32.7167, "longitude": -117.1629 },
    { "name": "Santander, Spain", "latitude": 43.4617, "longitude": -3.8104 },
    { "name": "Perth, Australia", "latitude": -31.77146, "longitude": 115.7806 },
    { "name": "Cairns, Australia", "latitude": -16.916, "longitude": 145.7735 },
    { "name": "Da Lat, Vietnam", "latitude": 11.9383, "longitude": 108.4363 },
    { "name": "Nadi, Fiji", "latitude": -17.778, "longitude": 177.4365 },
    { "name": "Adelaide, Australia", "latitude": -34.9271, "longitude": 138.5998 },
    { "name": "Hobart, Australia", "latitude": -42.88106, "longitude": 147.3323 },
    { "name": "Addis Ababa, Ethiopia", "latitude": 9.025, "longitude": 38.7469 }
]
